{
 "type": "FeatureCollection",
 "crs": {
  "type": "name",
  "properties": {
   "name": "urn:ogc:def:crs:OGC:1.3:CRS84"
  }
 },
 "features": [
  {
   "type": "Feature",
   "properties": {
    "arclim_id": "CABO LEONES I",
    "energia_eolica_amen": 0.057,
    "energia_eolica_dismin_generacion": -0.1549,
    "NOMBRE": "CABO LEONES I"
   },
   "geometry": {
    "type": "Point",
    "coordinates": [
     -71.44255,
     -28.92821
    ]
   }
  },
  {
   "type": "Feature",
   "properties": {
    "arclim_id": "CANELA",
    "energia_eolica_amen": -0.288,
    "energia_eolica_dismin_generacion": 0.7793,
    "NOMBRE": "CANELA"
   },
   "geometry": {
    "type": "Point",
    "coordinates": [
     -71.61069,
     -31.28669
    ]
   }
  },
  {
   "type": "Feature",
   "properties": {
    "arclim_id": "CANELA II",
    "energia_eolica_amen": -0.288,
    "energia_eolica_dismin_generacion": 0.7793,
    "NOMBRE": "CANELA II"
   },
   "geometry": {
    "type": "Point",
    "coordinates": [
     -71.61782,
     -31.30638
    ]
   }
  },
  {
   "type": "Feature",
   "properties": {
    "arclim_id": "EOLICA CUEL",
    "energia_eolica_amen": 0.48,
    "energia_eolica_dismin_generacion": -1.3007,
    "NOMBRE": "EOLICA CUEL"
   },
   "geometry": {
    "type": "Point",
    "coordinates": [
     -72.47897,
     -37.51407
    ]
   }
  },
  {
   "type": "Feature",
   "properties": {
    "arclim_id": "EOLICA EL ARRAYAN",
    "energia_eolica_amen": -0.265,
    "energia_eolica_dismin_generacion": 0.7167,
    "NOMBRE": "EOLICA EL ARRAYAN"
   },
   "geometry": {
    "type": "Point",
    "coordinates": [
     -71.70101,
     -30.58317
    ]
   }
  },
  {
   "type": "Feature",
   "properties": {
    "arclim_id": "EOLICA LAS PENAS",
    "energia_eolica_amen": 0.48,
    "energia_eolica_dismin_generacion": -1.3007,
    "NOMBRE": "EOLICA LAS PENAS"
   },
   "geometry": {
    "type": "Point",
    "coordinates": [
     -73.42633,
     -37.25716
    ]
   }
  },
  {
   "type": "Feature",
   "properties": {
    "arclim_id": "EOLICA LEBU",
    "energia_eolica_amen": 0.096,
    "energia_eolica_dismin_generacion": -0.2604,
    "NOMBRE": "EOLICA LEBU"
   },
   "geometry": {
    "type": "Point",
    "coordinates": [
     -73.64912,
     -37.68611
    ]
   }
  },
  {
   "type": "Feature",
   "properties": {
    "arclim_id": "EOLICA LEBU III",
    "energia_eolica_amen": 0.096,
    "energia_eolica_dismin_generacion": -0.2604,
    "NOMBRE": "EOLICA LEBU III"
   },
   "geometry": {
    "type": "Point",
    "coordinates": [
     -73.64417,
     -37.6822
    ]
   }
  },
  {
   "type": "Feature",
   "properties": {
    "arclim_id": "EOLICA LOS BUENOS AIRES",
    "energia_eolica_amen": 0.48,
    "energia_eolica_dismin_generacion": -1.3007,
    "NOMBRE": "EOLICA LOS BUENOS AIRES"
   },
   "geometry": {
    "type": "Point",
    "coordinates": [
     -72.50834,
     -37.53942
    ]
   }
  },
  {
   "type": "Feature",
   "properties": {
    "arclim_id": "EOLICA LOS CURUROS",
    "energia_eolica_amen": -0.307,
    "energia_eolica_dismin_generacion": 0.8311,
    "NOMBRE": "EOLICA LOS CURUROS"
   },
   "geometry": {
    "type": "Point",
    "coordinates": [
     -71.63223,
     -31.02937
    ]
   }
  },
  {
   "type": "Feature",
   "properties": {
    "arclim_id": "EOLICA PUNTA COLORADA",
    "energia_eolica_amen": 0.032,
    "energia_eolica_dismin_generacion": -0.0867,
    "NOMBRE": "EOLICA PUNTA COLORADA"
   },
   "geometry": {
    "type": "Point",
    "coordinates": [
     -71.04014,
     -29.36754
    ]
   }
  },
  {
   "type": "Feature",
   "properties": {
    "arclim_id": "EOLICA PUNTA PALMERAS",
    "energia_eolica_amen": -0.288,
    "energia_eolica_dismin_generacion": 0.7793,
    "NOMBRE": "EOLICA PUNTA PALMERAS"
   },
   "geometry": {
    "type": "Point",
    "coordinates": [
     -71.62508,
     -31.23603
    ]
   }
  },
  {
   "type": "Feature",
   "properties": {
    "arclim_id": "EOLICA SAN JUAN",
    "energia_eolica_amen": 0.032,
    "energia_eolica_dismin_generacion": -0.0867,
    "NOMBRE": "EOLICA SAN JUAN"
   },
   "geometry": {
    "type": "Point",
    "coordinates": [
     -71.46823,
     -28.88147
    ]
   }
  },
  {
   "type": "Feature",
   "properties": {
    "arclim_id": "EOLICA SAN PEDRO",
    "energia_eolica_amen": 1.0,
    "energia_eolica_dismin_generacion": -2.7084,
    "NOMBRE": "EOLICA SAN PEDRO"
   },
   "geometry": {
    "type": "Point",
    "coordinates": [
     -73.92411,
     -42.27541
    ]
   }
  },
  {
   "type": "Feature",
   "properties": {
    "arclim_id": "EOLICA SAN PEDRO II",
    "energia_eolica_amen": 1.0,
    "energia_eolica_dismin_generacion": -2.7084,
    "NOMBRE": "EOLICA SAN PEDRO II"
   },
   "geometry": {
    "type": "Point",
    "coordinates": [
     -73.91878,
     -42.2812
    ]
   }
  },
  {
   "type": "Feature",
   "properties": {
    "arclim_id": "EOLICA TALINAY ORIENTE",
    "energia_eolica_amen": -0.191,
    "energia_eolica_dismin_generacion": 0.5178,
    "NOMBRE": "EOLICA TALINAY ORIENTE"
   },
   "geometry": {
    "type": "Point",
    "coordinates": [
     -71.56972,
     -30.84637
    ]
   }
  },
  {
   "type": "Feature",
   "properties": {
    "arclim_id": "EOLICA TALINAY PONIENTE",
    "energia_eolica_amen": -0.191,
    "energia_eolica_dismin_generacion": 0.5178,
    "NOMBRE": "EOLICA TALINAY PONIENTE"
   },
   "geometry": {
    "type": "Point",
    "coordinates": [
     -71.65297,
     -30.81116
    ]
   }
  },
  {
   "type": "Feature",
   "properties": {
    "arclim_id": "EOLICA TALTAL",
    "energia_eolica_amen": 0.099,
    "energia_eolica_dismin_generacion": -0.2678,
    "NOMBRE": "EOLICA TALTAL"
   },
   "geometry": {
    "type": "Point",
    "coordinates": [
     -69.85721,
     -25.08005
    ]
   }
  },
  {
   "type": "Feature",
   "properties": {
    "arclim_id": "EOLICA TOTORAL",
    "energia_eolica_amen": -0.288,
    "energia_eolica_dismin_generacion": 0.7793,
    "NOMBRE": "EOLICA TOTORAL"
   },
   "geometry": {
    "type": "Point",
    "coordinates": [
     -71.60186,
     -31.34849
    ]
   }
  },
  {
   "type": "Feature",
   "properties": {
    "arclim_id": "HUAJACHE",
    "energia_eolica_amen": 0.096,
    "energia_eolica_dismin_generacion": -0.2604,
    "NOMBRE": "HUAJACHE"
   },
   "geometry": {
    "type": "Point",
    "coordinates": [
     -73.56849,
     -37.74617
    ]
   }
  },
  {
   "type": "Feature",
   "properties": {
    "arclim_id": "MONTE REDONDO",
    "energia_eolica_amen": 0.301,
    "energia_eolica_dismin_generacion": -0.8144,
    "NOMBRE": "MONTE REDONDO"
   },
   "geometry": {
    "type": "Point",
    "coordinates": [
     -71.63711,
     -31.07259
    ]
   }
  },
  {
   "type": "Feature",
   "properties": {
    "arclim_id": "PARQUE EOLICO LA ESPERANZA",
    "energia_eolica_amen": 0.48,
    "energia_eolica_dismin_generacion": -1.3007,
    "NOMBRE": "PARQUE EOLICO LA ESPERANZA"
   },
   "geometry": {
    "type": "Point",
    "coordinates": [
     -72.53435,
     -37.60584
    ]
   }
  },
  {
   "type": "Feature",
   "properties": {
    "arclim_id": "PARQUE EOLICO RENAICO",
    "energia_eolica_amen": 0.446,
    "energia_eolica_dismin_generacion": -1.2073,
    "NOMBRE": "PARQUE EOLICO RENAICO"
   },
   "geometry": {
    "type": "Point",
    "coordinates": [
     -72.58114,
     -37.72064
    ]
   }
  },
  {
   "type": "Feature",
   "properties": {
    "arclim_id": "PARQUE EOLICO SIERRA GORDA ESTE",
    "energia_eolica_amen": -0.201,
    "energia_eolica_dismin_generacion": 0.5432,
    "NOMBRE": "PARQUE EOLICO SIERRA GORDA ESTE"
   },
   "geometry": {
    "type": "Point",
    "coordinates": [
     -68.97469,
     -22.87768
    ]
   }
  },
  {
   "type": "Feature",
   "properties": {
    "arclim_id": "RAKI",
    "energia_eolica_amen": 0.096,
    "energia_eolica_dismin_generacion": -0.2604,
    "NOMBRE": "RAKI"
   },
   "geometry": {
    "type": "Point",
    "coordinates": [
     -73.57341,
     -37.74283
    ]
   }
  },
  {
   "type": "Feature",
   "properties": {
    "arclim_id": "UCUQUER",
    "energia_eolica_amen": 0.391,
    "energia_eolica_dismin_generacion": -1.0587,
    "NOMBRE": "UCUQUER"
   },
   "geometry": {
    "type": "Point",
    "coordinates": [
     -71.60981,
     -34.04421
    ]
   }
  },
  {
   "type": "Feature",
   "properties": {
    "arclim_id": "UCUQUER 2",
    "energia_eolica_amen": 0.391,
    "energia_eolica_dismin_generacion": -1.0587,
    "NOMBRE": "UCUQUER 2"
   },
   "geometry": {
    "type": "Point",
    "coordinates": [
     -71.62139,
     -34.04515
    ]
   }
  },
  {
   "type": "Feature",
   "properties": {
    "arclim_id": "VALLE DE LOS VIENTOS",
    "energia_eolica_amen": -0.191,
    "energia_eolica_dismin_generacion": 0.5178,
    "NOMBRE": "VALLE DE LOS VIENTOS"
   },
   "geometry": {
    "type": "Point",
    "coordinates": [
     -68.81711,
     -22.51783
    ]
   }
  },
  {
   "type": "Feature",
   "properties": {
    "arclim_id": "PARQUE E\u00d3LICO AURORA",
    "energia_eolica_amen": 0.892,
    "energia_eolica_dismin_generacion": -2.4156,
    "NOMBRE": "PARQUE E\u00d3LICO AURORA"
   },
   "geometry": {
    "type": "Point",
    "coordinates": [
     -73.1435,
     -41.23464
    ]
   }
  },
  {
   "type": "Feature",
   "properties": {
    "arclim_id": "PARQUE E\u00d3LICO EL MAITEN",
    "energia_eolica_amen": 0.48,
    "energia_eolica_dismin_generacion": -1.3007,
    "NOMBRE": "PARQUE E\u00d3LICO EL MAITEN"
   },
   "geometry": {
    "type": "Point",
    "coordinates": [
     -72.55659,
     -37.2397
    ]
   }
  },
  {
   "type": "Feature",
   "properties": {
    "arclim_id": "LA FLOR",
    "energia_eolica_amen": 0.446,
    "energia_eolica_dismin_generacion": -1.2073,
    "NOMBRE": "LA FLOR"
   },
   "geometry": {
    "type": "Point",
    "coordinates": [
     -72.59293,
     -37.6796
    ]
   }
  },
  {
   "type": "Feature",
   "properties": {
    "arclim_id": "PUNTA SIERRA",
    "energia_eolica_amen": -0.27,
    "energia_eolica_dismin_generacion": 0.7321,
    "NOMBRE": "PUNTA SIERRA"
   },
   "geometry": {
    "type": "Point",
    "coordinates": [
     -71.61319,
     -31.13644
    ]
   }
  },
  {
   "type": "Feature",
   "properties": {
    "arclim_id": "PE SAN GRABRIEL",
    "energia_eolica_amen": 0.462,
    "energia_eolica_dismin_generacion": -1.2517,
    "NOMBRE": "PE SAN GRABRIEL"
   },
   "geometry": {
    "type": "Point",
    "coordinates": [
     -72.52831,
     -37.6737
    ]
   }
  },
  {
   "type": "Feature",
   "properties": {
    "arclim_id": "SARCO",
    "energia_eolica_amen": 0.057,
    "energia_eolica_dismin_generacion": -0.1549,
    "NOMBRE": "SARCO"
   },
   "geometry": {
    "type": "Point",
    "coordinates": [
     -71.45183,
     -28.85475
    ]
   }
  }
 ]
}